{"4":{"id":"4","name":"Kombank arena","type":"Sportska hala","content":"Bina","location":{"longitude":100.6,"latitude":78.7,"address":{"addressName":"Marka Kraljevica","city":"Beograd","postalCode":"21000"}},"averageGrade":3.0,"image":"images\\kombankArena.png","workTime":{"startTime":{"hour":10,"minute":0,"second":0,"nano":0},"endTime":{"hour":12,"minute":0,"second":0,"nano":0}},"status":"Open"},"2":{"id":"2","name":"Stadion Karadjordje","type":"Sportski stadion","content":"Fudbalski teren","location":{"longitude":140.5,"latitude":33.7,"address":{"addressName":"Maksima Gorkog","city":"Novi Sad","postalCode":"22000"}},"averageGrade":3.0,"image":"images\\karadjordje.png","workTime":{"startTime":{"hour":15,"minute":0,"second":0,"nano":0},"endTime":{"hour":23,"minute":0,"second":0,"nano":0}},"status":"Open"},"3":{"id":"3","name":"Djacki","type":"Sportsko igraliste","content":"Kosarkaski teren","location":{"longitude":122.7,"latitude":44.9,"address":{"addressName":"Branimira Cosica","city":"Novi Sad","postalCode":"22000"}},"averageGrade":4.1,"image":"images\\djacki.png","workTime":{"startTime":{"hour":11,"minute":0,"second":0,"nano":0},"endTime":{"hour":21,"minute":0,"second":0,"nano":0}},"status":"Open"},"5":{"id":"5","name":"Non Stop Fitness","type":"Teretana","content":"Grupni treninzi","location":{"longitude":99.7,"latitude":23.9,"address":{"addressName":"Gajeva 13a","city":"Novi Sad","postalCode":"22000"}},"averageGrade":4.3,"image":"images\\nonStopFitnes.png","workTime":{"startTime":{"hour":13,"minute":0,"second":0,"nano":0},"endTime":{"hour":20,"minute":0,"second":0,"nano":0}},"status":"Open"},"6":{"id":"6","name":"Spens","type":"Hala","content":"Grupni treninzi","location":{"longitude":101.1,"latitude":55.9,"address":{"addressName":"Spens","city":"Novi Sad","postalCode":"22000"}},"averageGrade":4.9,"image":"images\\spens.png","workTime":{"startTime":{"hour":15,"minute":0,"second":0,"nano":0},"endTime":{"hour":23,"minute":0,"second":0,"nano":0}},"status":"Open"}}