{"4":{"id":"4","name":"Kombank arena","type":"Sportska hala","content":"Bina","location":{"longitude":100.6,"latitude":78.7,"address":{"addressName":"Marka Kraljevica","city":"Beograd","postalCode":"21000"}},"averageGrade":3.0,"image":"images\\kombankArena.png","workTime":{"startTime":{"hour":10,"minute":0,"second":0,"nano":0},"endTime":{"hour":12,"minute":0,"second":0,"nano":0}},"status":"Open"},"2":{"id":"2","name":"Stadion Karadjordje","type":"Sportski stadion","content":"Fudbalski teren","location":{"longitude":140.5,"latitude":33.7,"address":{"addressName":"Maksima Gorkog","city":"Novi Sad","postalCode":"22000"}},"averageGrade":3.0,"image":"images\\karadjordje.png","workTime":{"startTime":{"hour":15,"minute":0,"second":0,"nano":0},"endTime":{"hour":23,"minute":0,"second":0,"nano":0}},"status":"Open"},"3":{"id":"3","name":"Djacki","type":"Sportsko igraliste","content":"Kosarkaski teren","location":{"longitude":122.7,"latitude":44.9,"address":{"addressName":"Branimira Cosica","city":"Novi Sad","postalCode":"22000"}},"averageGrade":4.1,"image":"images\\djacki.png","workTime":{"startTime":{"hour":11,"minute":0,"second":0,"nano":0},"endTime":{"hour":21,"minute":0,"second":0,"nano":0}},"status":"Open"},"5":{"id":"5","name":"Non Stop Fitness","type":"Teretana","content":"Grupni treninzi","location":{"longitude":99.7,"latitude":23.9,"address":{"addressName":"Gajeva 13a","city":"Novi Sad","postalCode":"22000"}},"averageGrade":4.3,"image":"images\\nonStopFitnes.png","workTime":{"startTime":{"hour":13,"minute":0,"second":0,"nano":0},"endTime":{"hour":20,"minute":0,"second":0,"nano":0}},"status":"Open"},"6":{"id":"6","name":"Spens","type":"Hala","content":"Grupni treninzi","location":{"longitude":101.1,"latitude":55.9,"address":{"addressName":"Spens","city":"Novi Sad","postalCode":"22000"}},"averageGrade":4.9,"image":"images\\spens.png","workTime":{"startTime":{"hour":15,"minute":0,"second":0,"nano":0},"endTime":{"hour":23,"minute":0,"second":0,"nano":0}},"status":"Open"},"6UM5I":{"id":"6UM5I","name":"Ahilej","type":"Teretana","location":{"longitude":20.4489216,"latitude":44.786568,"address":{"addressName":"Beogradska 105","city":"Beograd","postalCode":"11000"}},"averageGrade":0.0,"image":"images\\lion.jfif","workTime":{"startTime":{"hour":8,"minute":0,"second":0,"nano":0},"endTime":{"hour":23,"minute":0,"second":0,"nano":0}},"status":"Close"},"M4OID":{"id":"M4OID","name":"FitnessZone","type":"Teretana","location":{"longitude":45.4565,"latitude":20.1646,"address":{"addressName":"Futoska 5","city":"Novi Sad","postalCode":"12100"}},"averageGrade":0.0,"image":"images\\mreze.png","workTime":{"startTime":{"hour":8,"minute":30,"second":0,"nano":0},"endTime":{"hour":21,"minute":30,"second":0,"nano":0}},"status":"Open"},"9IQGU":{"id":"9IQGU","name":"NonStop","type":"Teretana","location":{"longitude":45.65464,"latitude":20.646,"address":{"addressName":"Futoska 56","city":"Novi Sad","postalCode":"11000"}},"averageGrade":0.0,"image":"images\\mreze.png","workTime":{"startTime":{"hour":7,"minute":0,"second":0,"nano":0},"endTime":{"hour":23,"minute":30,"second":0,"nano":0}},"status":"Open"},"57WK8":{"id":"57WK8","name":"FullGym","type":"Teretana","location":{"longitude":45.6464,"latitude":25.4654,"address":{"addressName":"Beogradska 105","city":"Beograd","postalCode":"11000"}},"averageGrade":0.0,"image":"images\\lion.jfif","workTime":{"startTime":{"hour":7,"minute":0,"second":0,"nano":0},"endTime":{"hour":0,"minute":0,"second":0,"nano":0}},"status":"Close"},"XKY76":{"id":"XKY76","name":"Buldog","type":"Teretana","location":{"longitude":45.4644,"latitude":25.654,"address":{"addressName":"Beogradska 105","city":"Beograd","postalCode":"11000"}},"averageGrade":0.0,"image":"images\\lion.jfif","workTime":{"startTime":{"hour":0,"minute":0,"second":0,"nano":0},"endTime":{"hour":16,"minute":30,"second":0,"nano":0}},"status":"Open"},"T77G4":{"id":"T77G4","name":"TotalGym","type":"Teretana","location":{"longitude":45.464,"latitude":25.6669,"address":{"addressName":"Beogradska 146","city":"Beograd","postalCode":"11000"}},"averageGrade":0.0,"image":"images\\mreze.png","workTime":{"startTime":{"hour":0,"minute":0,"second":0,"nano":0},"endTime":{"hour":0,"minute":0,"second":0,"nano":0}},"status":"Open"},"B9A2H":{"id":"B9A2H","name":"NFit","type":"Teretana","location":{"longitude":45.64646,"latitude":25.4646,"address":{"addressName":"Beogradska 78","city":"Beograd","postalCode":"11000"}},"averageGrade":0.0,"image":"images\\lion.jfif","workTime":{"startTime":{"hour":9,"minute":0,"second":0,"nano":0},"endTime":{"hour":8,"minute":0,"second":0,"nano":0}},"status":"Close"},"EZMZ8":{"id":"EZMZ8","name":"AllFitness","type":"Teretana","location":{"longitude":45.6546,"latitude":25.45646,"address":{"addressName":"Beogradska 105","city":"Beograd","postalCode":"11000"}},"averageGrade":0.0,"image":"images\\mreze.png","workTime":{"startTime":{"hour":8,"minute":0,"second":0,"nano":0},"endTime":{"hour":8,"minute":0,"second":0,"nano":0}},"status":"Open"},"5WCP7":{"id":"5WCP7","name":"TotalFitness","type":"Teretana","location":{"longitude":45.466,"latitude":25.46,"address":{"addressName":"Beogradska 155","city":"Beograd","postalCode":"11000"}},"averageGrade":0.0,"image":"images\\lion.jfif","workTime":{"startTime":{"hour":7,"minute":30,"second":0,"nano":0},"endTime":{"hour":21,"minute":30,"second":0,"nano":0}},"status":"Open"},"NG48I":{"id":"NG48I","name":"Gymm","type":"Teretana","location":{"longitude":45.4564,"latitude":25.456,"address":{"addressName":"Beogradska 156","city":"Beograd","postalCode":"11000"}},"averageGrade":0.0,"image":"images\\mreze.png","workTime":{"startTime":{"hour":8,"minute":30,"second":0,"nano":0},"endTime":{"hour":19,"minute":30,"second":0,"nano":0}},"status":"Open"},"OTZ9N":{"id":"OTZ9N","name":"BuilderPro","type":"Teretana","location":{"longitude":45.466,"latitude":25.46,"address":{"addressName":"Beogradska 156","city":"Beograd","postalCode":"11000"}},"averageGrade":0.0,"image":"images\\mreze.png","workTime":{"startTime":{"hour":7,"minute":0,"second":0,"nano":0},"endTime":{"hour":23,"minute":30,"second":0,"nano":0}},"status":"Open"},"X9NEJ":{"id":"X9NEJ","name":"TerEtanA","type":"Teretana","location":{"longitude":45.456,"latitude":25.46,"address":{"addressName":"Beogradska 155","city":"Beograd","postalCode":"11000"}},"averageGrade":0.0,"image":"images\\mreze.png","workTime":{"startTime":{"hour":7,"minute":30,"second":0,"nano":0},"endTime":{"hour":20,"minute":30,"second":0,"nano":0}},"status":"Open"},"50E13":{"id":"50E13","name":"TFitness","type":"Teretana","location":{"longitude":45.455,"latitude":25.546,"address":{"addressName":"Beogradska 105","city":"Beograd","postalCode":"11000"}},"averageGrade":0.0,"image":"images\\mreze.png","workTime":{"startTime":{"hour":7,"minute":30,"second":0,"nano":0},"endTime":{"hour":12,"minute":30,"second":0,"nano":0}},"status":"Close"},"G9MUY":{"id":"G9MUY","name":"rths","type":"hs","location":{"longitude":45.0,"latitude":25.0,"address":{"addressName":"Beogradska 105","city":"Beograd","postalCode":"11000"}},"averageGrade":0.0,"image":"images\\mreze.png","workTime":{"startTime":{"hour":7,"minute":0,"second":0,"nano":0},"endTime":{"hour":13,"minute":0,"second":0,"nano":0}},"status":"Open"},"ZG1H4":{"id":"ZG1H4","name":"rths","type":"hs","location":{"longitude":45.0,"latitude":25.0,"address":{"addressName":"Beogradska 105","city":"Beograd","postalCode":"11000"}},"averageGrade":0.0,"image":"images\\mreze.png","workTime":{"startTime":{"hour":7,"minute":0,"second":0,"nano":0},"endTime":{"hour":13,"minute":0,"second":0,"nano":0}},"status":"Open"},"E3IGB":{"id":"E3IGB","name":"Teretanica","type":"Teretana","location":{"longitude":45.0,"latitude":25.0,"address":{"addressName":"Beogradska 105","city":"Beograd","postalCode":"11000"}},"averageGrade":0.0,"image":"images\\lion.jfif","workTime":{"startTime":{"hour":8,"minute":0,"second":0,"nano":0},"endTime":{"hour":21,"minute":0,"second":0,"nano":0}},"status":"Open"},"04XBD":{"id":"04XBD","name":"faa","type":"Teretana","location":{"longitude":45.0,"latitude":25.0,"address":{"addressName":"Beogradska 105","city":"Beograd","postalCode":"11000"}},"averageGrade":0.0,"image":"images\\lion.jfif","workTime":{"startTime":{"hour":7,"minute":30,"second":0,"nano":0},"endTime":{"hour":12,"minute":30,"second":0,"nano":0}},"status":"Close"},"VGHRT":{"id":"VGHRT","name":"ada","type":"Teretana","location":{"longitude":45.0,"latitude":25.0,"address":{"addressName":"Beogradska 105","city":"Beograd","postalCode":"11000"}},"averageGrade":0.0,"image":"images\\mreze.png","workTime":{"startTime":{"hour":7,"minute":30,"second":0,"nano":0},"endTime":{"hour":9,"minute":0,"second":0,"nano":0}},"status":"Close"},"APX8V":{"id":"APX8V","name":"Ter","type":"Teretana","location":{"longitude":45.0,"latitude":25.0,"address":{"addressName":"Beogradska 105","city":"Beograd","postalCode":"11000"}},"averageGrade":0.0,"image":"images\\mreze.png","workTime":{"startTime":{"hour":8,"minute":0,"second":0,"nano":0},"endTime":{"hour":22,"minute":30,"second":0,"nano":0}},"status":"Open"},"790JS":{"id":"790JS","name":"ad","type":"Teretana","location":{"longitude":45.0,"latitude":25.0,"address":{"addressName":"Futoska 5","city":"Beograd","postalCode":"11000"}},"averageGrade":0.0,"image":"images\\mreze.png","workTime":{"startTime":{"hour":8,"minute":0,"second":0,"nano":0},"endTime":{"hour":15,"minute":0,"second":0,"nano":0}},"status":"Open"},"RIWXM":{"id":"RIWXM","name":"Xtreme","type":"Teretana","location":{"longitude":45.0,"latitude":25.0,"address":{"addressName":"Beogradska 105","city":"Beograd","postalCode":"11000"}},"averageGrade":0.0,"image":"images\\mreze.png","workTime":{"startTime":{"hour":7,"minute":0,"second":0,"nano":0},"endTime":{"hour":21,"minute":0,"second":0,"nano":0}},"status":"Open"},"54UWW":{"id":"54UWW","name":"ad","type":"Teretana","location":{"longitude":45.0,"latitude":25.0,"address":{"addressName":"Beogradska 105","city":"Beograd","postalCode":"11000"}},"averageGrade":0.0,"image":"images\\mreze.png","workTime":{"startTime":{"hour":7,"minute":30,"second":0,"nano":0},"endTime":{"hour":2,"minute":0,"second":0,"nano":0}},"status":"Open"},"FUM6Z":{"id":"FUM6Z","name":"jh","type":"Teretana","location":{"longitude":45.0,"latitude":25.0,"address":{"addressName":"Beogradska 105","city":"Beograd","postalCode":"11000"}},"averageGrade":0.0,"image":"images\\mreze.png","workTime":{"startTime":{"hour":8,"minute":30,"second":0,"nano":0},"endTime":{"hour":23,"minute":30,"second":0,"nano":0}},"status":"Open"},"UBCX3":{"id":"UBCX3","name":"jh","type":"Teretana","location":{"longitude":45.0,"latitude":25.0,"address":{"addressName":"Beogradska 105","city":"Beograd","postalCode":"11000"}},"averageGrade":0.0,"image":"images\\mreze.png","workTime":{"startTime":{"hour":8,"minute":30,"second":0,"nano":0},"endTime":{"hour":23,"minute":30,"second":0,"nano":0}},"status":"Open"},"LQI7B":{"id":"LQI7B","name":"jh","type":"Teretana","location":{"longitude":45.0,"latitude":25.0,"address":{"addressName":"Beogradska 105","city":"Beograd","postalCode":"11000"}},"averageGrade":0.0,"image":"images\\mreze.png","workTime":{"startTime":{"hour":7,"minute":30,"second":0,"nano":0},"endTime":{"hour":15,"minute":30,"second":0,"nano":0}},"status":"Open"},"TTGI2":{"id":"TTGI2","name":"jh","type":"Teretana","location":{"longitude":45.0,"latitude":25.0,"address":{"addressName":"Futoska 5","city":"Beograd","postalCode":"11000"}},"averageGrade":0.0,"image":"images\\mreze.png","workTime":{"startTime":{"hour":9,"minute":0,"second":0,"nano":0},"endTime":{"hour":18,"minute":30,"second":0,"nano":0}},"status":"Open"},"182EZ":{"id":"182EZ","name":"GymPro","type":"Teretana","location":{"longitude":45.0,"latitude":25.0,"address":{"addressName":"Futoska 5","city":"Beograd","postalCode":"11000"}},"averageGrade":0.0,"image":"images\\lion.jfif","workTime":{"startTime":{"hour":7,"minute":30,"second":0,"nano":0},"endTime":{"hour":22,"minute":0,"second":0,"nano":0}},"status":"Open"},"5SSQR":{"id":"5SSQR","name":"BnGym","type":"Teretana","location":{"longitude":45.0,"latitude":52.0,"address":{"addressName":"Ulica Gavrila Principa","city":"Nis","postalCode":"11200"}},"averageGrade":0.0,"image":"images\\mreze.png","workTime":{"startTime":{"hour":9,"minute":0,"second":0,"nano":0},"endTime":{"hour":22,"minute":0,"second":0,"nano":0}},"status":"Open"},"Q4L2Z":{"id":"Q4L2Z","name":"BNFitness","type":"Teretana","location":{"longitude":48.0,"latitude":25.0,"address":{"addressName":"Sarajevska 23","city":"Bijeljina","postalCode":"76300"}},"averageGrade":0.0,"image":"images\\lion.jfif","workTime":{"startTime":{"hour":8,"minute":0,"second":0,"nano":0},"endTime":{"hour":23,"minute":0,"second":0,"nano":0}},"status":"Open"}}