{"VTY30":{"id":"VTY30","name":"Kombank arena","type":"Teretana","contents":[{"name":"Kafic","type":"Relaksacija","image":"images\\kafic.jfif","description":"Uzivanje u lepom ambijentu i odlicnoj atmosferi!","durationInMinutes":0}],"location":{"longitude":20.42136,"latitude":44.81415,"address":{"addressName":"Bulevar Arsenija Èarnojeviæa 58","city":"Beograd","postalCode":"11000"}},"averageGrade":5.0,"image":"images\\Arena.jfif","workTime":{"startTime":{"hour":8,"minute":0,"second":0,"nano":0},"endTime":{"hour":22,"minute":0,"second":0,"nano":0}},"status":"Close","isDeleted":false},"0OUYM":{"id":"0OUYM","name":"Stadion Partizana","type":"Teretana","location":{"longitude":20.4554565115,"latitude":44.7865768537,"address":{"addressName":"Humska ulica 1","city":"Beograd","postalCode":"11000"}},"averageGrade":0.0,"image":"images\\Partizan.jfif","workTime":{"startTime":{"hour":9,"minute":0,"second":0,"nano":0},"endTime":{"hour":20,"minute":0,"second":0,"nano":0}},"status":"Close","isDeleted":false},"TIBCU":{"id":"TIBCU","name":"Stadion \"Rajko Mitic\"","type":"Teretana","location":{"longitude":20.4589464975,"latitude":44.7765835603,"address":{"addressName":"Ljutice Bogdana 1a","city":"Beograd","postalCode":"11000"}},"averageGrade":0.0,"image":"images\\zvezda.jpg","workTime":{"startTime":{"hour":10,"minute":0,"second":0,"nano":0},"endTime":{"hour":18,"minute":0,"second":0,"nano":0}},"status":"Close","isDeleted":false},"O9DWP":{"id":"O9DWP","name":"Dvorana \"Aleksandar Nikolic\"","type":"Mali fudbal","location":{"longitude":20.4843980624,"latitude":44.8093067628,"address":{"addressName":"Èarlija Èaplina, ","city":"Beograd","postalCode":"11000"}},"averageGrade":0.0,"image":"images\\pionir.jfif","workTime":{"startTime":{"hour":11,"minute":0,"second":0,"nano":0},"endTime":{"hour":18,"minute":30,"second":0,"nano":0}},"status":"Close","isDeleted":false},"2GTW0":{"id":"2GTW0","name":"Spens","type":"Bazen","location":{"longitude":19.84556,"latitude":45.2475,"address":{"addressName":"Sutjeska 2","city":"Novi Sad","postalCode":"21000"}},"averageGrade":0.0,"image":"images\\SwimmingSpens.jpg","workTime":{"startTime":{"hour":11,"minute":0,"second":0,"nano":0},"endTime":{"hour":21,"minute":0,"second":0,"nano":0}},"status":"Close","isDeleted":false}}